Location Name,Latitude,Longitude,Description,Industry Type,Demographic Information,Environmental Factors
Mumbai,19.076,72.8777,Located near major highways and railroads. Abundant workforce in the area.,Manufacturing,"Population: 12,478,447; Median Income: $20,000","Moderate air quality, coastal city"
Delhi,28.7041,77.1025,Situated in the capital city with access to skilled workforce and tech infrastructure.,Technology,"Population: 11,034,555; Median Income: $22,000","Moderate air quality, inland city"
Kolkata,22.5726,88.3639,Adjacent to a major seaport with easy access to global markets.,Logistics,"Population: 4,496,694; Median Income: $18,000","Proximity to water, potential water pollution concerns"
Chennai,13.0827,80.2707,Large tracts of open land suitable for agricultural and food processing industries.,Agriculture,"Population: 7,088,000; Median Income: $21,000","Moderate air quality, coastal city"
Bangalore,12.9716,77.5946,Hub of technology and innovation. Home to many multinational corporations.,Technology,"Population: 8,443,675; Median Income: $25,000","Moderate air quality, temperate climate"
Hyderabad,17.385,78.4867,Growing IT hub with a strong presence of pharmaceutical and biotechnology industries.,Technology,"Population: 6,809,970; Median Income: $23,000","Moderate air quality, inland city"
Ahmedabad,23.0225,72.5714,Major industrial and economic hub in western India.,Manufacturing,"Population: 5,570,585; Median Income: $19,000","Moderate air quality, inland city"
Pune,18.5204,73.8567,Education and IT center with a strong automotive and manufacturing presence.,Technology,"Population: 3,124,458; Median Income: $24,000","Moderate air quality, inland city"
